[{"SAKE_ID":1,"NAME":"国士無双","PREFECTURE":"北海道","CITY":"旭川市","COMPANY":"高砂酒造","LATITUDE":43.760696,"LONGITUTDE":142.372588,"ACIDITY":1.4,"SAKE_METER":5},
{"SAKE_ID":2,"NAME":"田酒","PREFECTURE":"青森県","CITY":"青森市","COMPANY":"西田酒造","LATITUDE":40.854139,"LONGITUTDE":140.696814,"ACIDITY":1.3,"SAKE_METER":2},
{"SAKE_ID":3,"NAME":"あさ開","PREFECTURE":"岩手県","CITY":"盛岡市","COMPANY":"あさ開昭和旭蔵","LATITUDE":39.691597,"LONGITUTDE":141.159229,"ACIDITY":1.3,"SAKE_METER":3},
{"SAKE_ID":4,"NAME":"浦霞","PREFECTURE":"宮城県","CITY":"塩竈市","COMPANY":"浦霞醸造","LATITUDE":38.316860,"LONGITUTDE":141.019247,"ACIDITY":1.5,"SAKE_METER":1},
{"SAKE_ID":5,"NAME":"新政","PREFECTURE":"秋田県","CITY":"秋田市","COMPANY":"新政酒造","LATITUDE":39.710843,"LONGITUTDE":140.114536,"ACIDITY":1.8,"SAKE_METER":0},
{"SAKE_ID":6,"NAME":"十四代","PREFECTURE":"山形県","CITY":"村山市","COMPANY":"出羽桜酒造","LATITUDE":38.349202,"LONGITUTDE":140.370487,"ACIDITY":1.3,"SAKE_METER":4},
{"SAKE_ID":7,"NAME":"飛露喜","PREFECTURE":"福島県","CITY":"河沼郡","COMPANY":"廣木酒造","LATITUDE":37.560615,"LONGITUTDE":139.825794,"ACIDITY":1.7,"SAKE_METER":3},
{"SAKE_ID":8,"NAME":"郷乃誉","PREFECTURE":"茨城県","CITY":"笠間市","COMPANY":"須藤本家","LATITUDE":36.361727,"LONGITUTDE":140.324600,"ACIDITY":1.4,"SAKE_METER":2},
{"SAKE_ID":9,"NAME":"鳳凰美田","PREFECTURE":"栃木県","CITY":"小山市","COMPANY":"小林酒造","LATITUDE":36.345993,"LONGITUTDE":139.769501,"ACIDITY":1.4,"SAKE_METER":4},
{"SAKE_ID":10,"NAME":"尾瀬の雪どけ","PREFECTURE":"群馬県","CITY":"館林市","COMPANY":"龍神酒造","LATITUDE":36.251222,"LONGITUTDE":139.530710,"ACIDITY":1.5,"SAKE_METER":1},
{"SAKE_ID":11,"NAME":"神亀","PREFECTURE":"埼玉県","CITY":"蓮田市","COMPANY":"神亀酒造","LATITUDE":35.972078,"LONGITUTDE":139.657431,"ACIDITY":1.6,"SAKE_METER":6},
{"SAKE_ID":12,"NAME":"五人娘","PREFECTURE":"千葉県","CITY":"香取郡","COMPANY":"寺田本家","LATITUDE":35.905132,"LONGITUTDE":140.401608,"ACIDITY":2.1,"SAKE_METER":4},
{"SAKE_ID":13,"NAME":"澤乃井","PREFECTURE":"東京都","CITY":"青梅市","COMPANY":"小澤酒造","LATITUDE":35.804928,"LONGITUTDE":139.193677,"ACIDITY":1.5,"SAKE_METER":3},
{"SAKE_ID":14,"NAME":"いづみ橋","PREFECTURE":"神奈川県","CITY":"海老名市","COMPANY":"泉橋酒造","LATITUDE":35.465855,"LONGITUTDE":139.390184,"ACIDITY":1.4,"SAKE_METER":5},
{"SAKE_ID":15,"NAME":"久保田","PREFECTURE":"新潟県","CITY":"長岡市","COMPANY":"朝日酒造","LATITUDE":37.396888,"LONGITUTDE":138.774638,"ACIDITY":1.2,"SAKE_METER":2},
{"SAKE_ID":16,"NAME":"満寿泉","PREFECTURE":"富山県","CITY":"富山市","COMPANY":"桝田酒造","LATITUDE":36.755574,"LONGITUTDE":137.229085,"ACIDITY":1.3,"SAKE_METER":5},
{"SAKE_ID":17,"NAME":"天狗舞","PREFECTURE":"石川県","CITY":"白山市","COMPANY":"車多酒造","LATITUDE":36.493223,"LONGITUTDE":136.576763,"ACIDITY":1.2,"SAKE_METER":4},
{"SAKE_ID":18,"NAME":"黒龍","PREFECTURE":"福井県","CITY":"吉田郡","COMPANY":"黒龍酒造","LATITUDE":36.091581,"LONGITUTDE":136.298802,"ACIDITY":1.0,"SAKE_METER":5},
{"SAKE_ID":19,"NAME":"春鶯囀","PREFECTURE":"山梨県","CITY":"南巨摩郡","COMPANY":"萬屋醸造","LATITUDE":35.560486,"LONGITUTDE":138.466947,"ACIDITY":1.3,"SAKE_METER":5},
{"SAKE_ID":20,"NAME":"真澄","PREFECTURE":"長野県","CITY":"諏訪市","COMPANY":"宮坂醸造","LATITUDE":35.886444,"LONGITUTDE":138.229631,"ACIDITY":2.1,"SAKE_METER":-1},
{"SAKE_ID":21,"NAME":"小左衛門","PREFECTURE":"岐阜県","CITY":"瑞浪市","COMPANY":"中島醸造","LATITUDE":35.365095,"LONGITUTDE":137.259791,"ACIDITY":2.8,"SAKE_METER":7},
{"SAKE_ID":22,"NAME":"磯自慢","PREFECTURE":"静岡県","CITY":"焼津市","COMPANY":"磯自慢酒造","LATITUDE":34.858174,"LONGITUTDE":138.322743,"ACIDITY":1.2,"SAKE_METER":7},
{"SAKE_ID":23,"NAME":"醸し人九平次","PREFECTURE":"愛知県","CITY":"名古屋市","COMPANY":"萬乗醸造","LATITUDE":35.064908,"LONGITUTDE":136.933380,"ACIDITY":1.7,"SAKE_METER":0},
{"SAKE_ID":24,"NAME":"三重錦","PREFECTURE":"三重県","CITY":"伊賀市","COMPANY":"中井仁平酒造","LATITUDE":34.769784,"LONGITUTDE":136.123844,"ACIDITY":2.0,"SAKE_METER":6},
{"SAKE_ID":25,"NAME":"松の司","PREFECTURE":"滋賀県","CITY":"蒲生郡","COMPANY":"松瀬酒造","LATITUDE":35.083280,"LONGITUTDE":136.118966,"ACIDITY":1.3,"SAKE_METER":2},
{"SAKE_ID":26,"NAME":"玉乃光","PREFECTURE":"京都府","CITY":"京都市","COMPANY":"玉乃光酒造","LATITUDE":34.937656,"LONGITUTDE":135.757956,"ACIDITY":1.8,"SAKE_METER":3},
{"SAKE_ID":27,"NAME":"秋鹿","PREFECTURE":"大阪府","CITY":"豊能郡","COMPANY":"秋鹿酒造","LATITUDE":34.976744,"LONGITUTDE":135.467000,"ACIDITY":2.0,"SAKE_METER":8},
{"SAKE_ID":28,"NAME":"剣菱","PREFECTURE":"兵庫県","CITY":"神戸市","COMPANY":"剣菱酒造","LATITUDE":34.710109,"LONGITUTDE":135.256749,"ACIDITY":1.6,"SAKE_METER":0},
{"SAKE_ID":29,"NAME":"風の森","PREFECTURE":"奈良県","CITY":"御所市","COMPANY":"油長酒造","LATITUDE":34.461848,"LONGITUTDE":135.736862,"ACIDITY":1.9,"SAKE_METER":2},
{"SAKE_ID":30,"NAME":"黒牛","PREFECTURE":"和歌山県","CITY":"海南市","COMPANY":"名手酒造","LATITUDE":34.163251,"LONGITUTDE":135.206414,"ACIDITY":1.7,"SAKE_METER":5},
{"SAKE_ID":31,"NAME":"鷹勇","PREFECTURE":"鳥取県","CITY":"東伯郡","COMPANY":"大谷酒造","LATITUDE":35.493209,"LONGITUTDE":133.691745,"ACIDITY":1.5,"SAKE_METER":6},
{"SAKE_ID":32,"NAME":"李白","PREFECTURE":"島根県","CITY":"松江市","COMPANY":"李白酒造","LATITUDE":35.481036,"LONGITUTDE":133.058068,"ACIDITY":1.5,"SAKE_METER":5},
{"SAKE_ID":33,"NAME":"酒一筋","PREFECTURE":"岡山県","CITY":"赤磐市","COMPANY":"利守酒造","LATITUDE":34.809200,"LONGITUTDE":134.014232,"ACIDITY":1.3,"SAKE_METER":4},
{"SAKE_ID":34,"NAME":"竹鶴","PREFECTURE":"広島県","CITY":"竹原市","COMPANY":"竹鶴酒造","LATITUDE":34.345993,"LONGITUTDE":132.911405,"ACIDITY":2.9,"SAKE_METER":7.5},
{"SAKE_ID":35,"NAME":"獺祭","PREFECTURE":"山口県","CITY":"岩国市","COMPANY":"旭酒造","LATITUDE":34.125342,"LONGITUTDE":132.004985,"ACIDITY":1.1,"SAKE_METER":4},
{"SAKE_ID":36,"NAME":"三芳菊","PREFECTURE":"徳島県","CITY":"三好市","COMPANY":"三芳菊酒造","LATITUDE":34.027804,"LONGITUTDE":133.810295,"ACIDITY":1.2,"SAKE_METER":1.7},
{"SAKE_ID":37,"NAME":"悦凱陣","PREFECTURE":"香川県","CITY":"仲多度郡","COMPANY":"丸尾本店","LATITUDE":34.191574,"LONGITUTDE":133.828655,"ACIDITY":1.6,"SAKE_METER":4},
{"SAKE_ID":38,"NAME":"石鎚","PREFECTURE":"愛媛県","CITY":"西条市","COMPANY":"石鎚酒造","LATITUDE":33.891017,"LONGITUTDE":133.130402,"ACIDITY":1.7,"SAKE_METER":3},
{"SAKE_ID":39,"NAME":"南","PREFECTURE":"高知県","CITY":"安芸郡","COMPANY":"南酒造","LATITUDE":33.438705,"LONGITUTDE":133.981978,"ACIDITY":1.8,"SAKE_METER":8},
{"SAKE_ID":40,"NAME":"庭のうぐいす","PREFECTURE":"福岡県","CITY":"久留米市","COMPANY":"山口酒造","LATITUDE":33.343815,"LONGITUTDE":130.581938,"ACIDITY":1.5,"SAKE_METER":3},
{"SAKE_ID":41,"NAME":"鍋島","PREFECTURE":"佐賀県","CITY":"鹿島市","COMPANY":"富久千代酒造","LATITUDE":33.093680,"LONGITUTDE":130.114580,"ACIDITY":1.6,"SAKE_METER":5},
{"SAKE_ID":42,"NAME":"六十餘洲","PREFECTURE":"長崎県","CITY":"東彼杵郡","COMPANY":"今里酒造","LATITUDE":33.136453,"LONGITUTDE":129.896401,"ACIDITY":1.3,"SAKE_METER":4},
{"SAKE_ID":43,"NAME":"れいざん","PREFECTURE":"熊本県","CITY":"安蘇郡","COMPANY":"山村酒造","LATITUDE":32.817305,"LONGITUTDE":131.125192,"ACIDITY":1.6,"SAKE_METER":3.5},
{"SAKE_ID":44,"NAME":"西の関","PREFECTURE":"大分県","CITY":"国東市","COMPANY":"萱島酒造","LATITUDE":33.525374,"LONGITUTDE":131.725850,"ACIDITY":1.4,"SAKE_METER":-1.5},
{"SAKE_ID":45,"NAME":"千徳","PREFECTURE":"宮崎県","CITY":"延岡市","COMPANY":"千徳酒造","LATITUDE":32.573349,"LONGITUTDE":131.666326,"ACIDITY":1.5,"SAKE_METER":2},
{"SAKE_ID":46,"NAME":"薩州正宗","PREFECTURE":"鹿児島県","CITY":"いちき串木野市","COMPANY":"濱田酒造","LATITUDE":31.727095,"LONGITUTDE":130.256862,"ACIDITY":1.8,"SAKE_METER":0},
{"SAKE_ID":47,"NAME":"黎明","PREFECTURE":"沖縄県","CITY":"うるま市","COMPANY":"泰石酒造","LATITUDE":26.368908,"LONGITUTDE":127.852111,"ACIDITY":1.6,"SAKE_METER":7.1},
{"SAKE_ID":48,"NAME":"八海山","PREFECTURE":"新潟県","CITY":"南魚沼市","COMPANY":"八海醸造","LATITUDE":37.100666,"LONGITUTDE":138.927334,"ACIDITY":1.2,"SAKE_METER":4},
{"SAKE_ID":49,"NAME":"出羽桜","PREFECTURE":"山形県","CITY":"天童市","COMPANY":"出羽桜酒造","LATITUDE":38.349210,"LONGITUTDE":140.370476,"ACIDITY":1.4,"SAKE_METER":4},
{"SAKE_ID":50,"NAME":"梵","PREFECTURE":"福井県","CITY":"鯖江市","COMPANY":"加藤吉平商店","LATITUDE":35.986345,"LONGITUTDE":136.170473,"ACIDITY":1.2,"SAKE_METER":2},
{"SAKE_ID":51,"NAME":"臥竜梅","PREFECTURE":"静岡県","CITY":"静岡市","COMPANY":"三和酒造","LATITUDE":35.036069,"LONGITUTDE":138.482989,"ACIDITY":1.1,"SAKE_METER":4},
{"SAKE_ID":52,"NAME":"菊姫","PREFECTURE":"石川県","CITY":"白山市","COMPANY":"菊姫","LATITUDE":36.446333,"LONGITUTDE":136.629603,"ACIDITY":1.2,"SAKE_METER":5},
{"SAKE_ID":53,"NAME":"大七","PREFECTURE":"福島県","CITY":"二本松市","COMPANY":"大七酒造","LATITUDE":37.598804,"LONGITUTDE":140.444407,"ACIDITY":1.6,"SAKE_METER":3},
{"SAKE_ID":54,"NAME":"蓬莱泉","PREFECTURE":"愛知県","CITY":"北設楽郡","COMPANY":"関谷醸造","LATITUDE":36.738151,"LONGITUTDE":138.420684,"ACIDITY":1.3,"SAKE_METER":1},
{"SAKE_ID":55,"NAME":"雪の茅舎","PREFECTURE":"秋田県","CITY":"由利本荘市","COMPANY":"齋彌酒造","LATITUDE":39.396453,"LONGITUTDE":140.049867,"ACIDITY":1.5,"SAKE_METER":-1},
{"SAKE_ID":56,"NAME":"雁木","PREFECTURE":"山口県","CITY":"岩国市","COMPANY":"八百新酒造","LATITUDE":34.162242,"LONGITUTDE":132.216717,"ACIDITY":1.6,"SAKE_METER":5},
{"SAKE_ID":57,"NAME":"日高見","PREFECTURE":"宮城県","CITY":"石巻市","COMPANY":"平孝酒造","LATITUDE":38.436746,"LONGITUTDE":141.297528,"ACIDITY":1.7,"SAKE_METER":11}]