 [{"SAKE_ID":0,"NAMEJPN":"久保田","NAMEENG":"KUBOTA","PREFECTURE":"新潟県","CITY":"長岡市","COMPANY":"朝日酒造","LATITUDE":37.396888,"LONGITUTDE":138.774638,"ACIDITY":1.2,"SAKE_METER":2,"DETAILJP":"久保田は新潟県長岡市朝日に本社を置く朝日酒造株式会社によって作られている。新潟県の地酒を代表するだけではなく、日本酒の代表格である銘柄で、世界中で愛飲されているベストセラーである。地元の米と水を用い、先人たちから受け継がれた技で、誰からもおいしいと喜んでいただける酒を造る。朝日酒造は、品質本位の酒造りを追求している。メインラインナップは萬寿、碧寿、千寿となっており、山廃酒母を用いることで味わいに深みがありつつも、のど越しは軽やかな印象を受ける。世界中で愛され続ける久保田は常に世界最高品質を追求している。","DETAILENG":"Hello, World"},
  {"SAKE_ID":1,"NAMEJPN":"十四代","NAMEENG":"JU-YONDAI","PREFECTURE":"山形県","CITY":"村山市","COMPANY":"出羽桜酒造","LATITUDE":38.349202,"LONGITUTDE":140.370487,"ACIDITY":1.3,"SAKE_METER":4,"DETAILJP":"十四代は山形県村山市富並に本社を置く高木酒造株式会社によって作られている。山形県の地酒を代表するだけではなく、日本酒の代表格である銘柄で、1615年に創業した。「十四代」という銘柄は、昔は古酒に使われていた歴史を持つ。十四代目である辰五郎氏は「お酒造りは自然界の曼荼羅」と語る。昔から酒蔵が村の神社を造り、お神酒をささげ、そこにまた米が集まった。この流れはまさに自然の輪廻。この流れが狂い始めていることに不安を感じている。まさに神的な発想でもあるが、歴史のある高木酒造蔵主だからこそ感じることができるのであろう。","DETAILENG":"Hello, World"},
  {"SAKE_ID":2,"NAMEJPN":"黒龍","NAMEENG":"KOKURYU","PREFECTURE":"福井県","CITY":"吉田郡","COMPANY":"黒龍酒造","LATITUDE":36.091581,"LONGITUTDE":136.298802,"ACIDITY":1.0,"SAKE_METER":5,"DETAILJP":"黒龍は福井県吉田郡永平寺町に本社を置く黒龍株式会社によって作られている。福井県の地酒を代表するだけではなく、日本酒の代表格である銘柄で、1804年に創業以来、手造りの日本酒を追求している。七代目蔵元水野は同じ醸造酒としてのワインに深い興味を抱き、フランスやドイツを歴訪した。ワイン同様に日本酒を熟成できないかと試行錯誤を続けて、少量で高品質な酒造りだけを追求し続けていった。そうして生まれたのが大吟醸「龍」。市販ベースにはなり得ないという酒造業界の常識に屈することなく、全国に先駆けての大吟醸酒の商品化をしたのだ。","DETAILENG":"Hello, World"},
  {"SAKE_ID":3,"NAMEJPN":"磯自慢","NAMEENG":"ISOJIMAN","PREFECTURE":"静岡県","CITY":"焼津市","COMPANY":"磯自慢酒造","LATITUDE":34.858174,"LONGITUTDE":138.322743,"ACIDITY":1.2,"SAKE_METER":7,"DETAILJP":"磯自慢酒造の努力や工夫は、『酒販店やファンの信頼を決して裏切らない』という一点に集約されている。酒造りの条件は毎年変わる。米の出来具合は毎年異なり、気温や湿度も年毎、日毎に変化する。さらに酒は麹や酵母といった生き物によって造られるため、まったく同じ条件ということはあり得ない。変化する条件の中で、いかに「磯自慢」として信頼いただいている品質を再現するか常に考えて常に美味しいお酒目指して日々改良している。","DETAILENG":"Hello, World"},
  {"SAKE_ID":4,"NAMEJPN":"天狗舞","NAMEENG":"TENGUMAI","PREFECTURE":"石川県","CITY":"白山市","COMPANY":"車多酒造","LATITUDE":36.493223,"LONGITUTDE":136.576763,"ACIDITY":1.2,"SAKE_METER":4,"DETAILJP":"天狗舞は石川県白山市坊丸町に本社を置く車多酒造株式会社によって作られている。石川県の地酒を代表するだけではなく、日本酒の代表格である銘柄で、「天狗舞を飲んではじめて酒の旨味がわかった」という一言のために日々精進している。天狗舞といえば山廃純米酒。山廃とは酒母の製造方法のひとつで、古来の酒母造りの流れをくむ方法。仕込みのときに、雑菌による汚染を防ぐための既製の乳酸を添加せず、自然界の乳酸菌を巧みに取り込み、低温でじっくりと乳酸発酵させる。この自然の姿で育てた酒母には、頑強で元気な酵母だけが生き残る。","DETAILENG":"Hello, World"},
  {"SAKE_ID":5,"NAMEJPN":"飛露喜","NAMEENG":"HIROKI","PREFECTURE":"福島県","CITY":"河沼郡","COMPANY":"廣木酒造","LATITUDE":37.560615,"LONGITUTDE":139.825794,"ACIDITY":1.7,"SAKE_METER":3,"DETAILJP":"飛露喜は福島県河沼郡会津坂下に本社を置く廣木酒造本店によって作られている。福島県の地酒を代表するだけではなく、日本酒の代表格である銘柄で、創業以来、濃密な透明感のある、存在感のある酒を造ることを目指している。実際に飲んでみると、その言葉どうりの酒質、存在感があり、食卓の主役となれるお酒である。限られた本数しか製造されない為、地元会津でもここ数年品切れ状態が続いている。上立ち香はラインナップ全体的に華やかで、口に入れた瞬間、花のように香る。酸味が目立つにも関わらずそれが絶妙に甘味とバランスを保つお酒。","DETAILENG":"Hello, World"},
  {"SAKE_ID":6,"NAMEJPN":"醸し人九平次","NAMEENG":"KAMOSHIBITOKUHEIJI","PREFECTURE":"愛知県","CITY":"名古屋市","COMPANY":"萬乗醸造","LATITUDE":35.064908,"LONGITUTDE":136.933380,"ACIDITY":1.7,"SAKE_METER":0,"DETAILJP":"醸し人九平次は愛知県名古屋市緑区大高町に本社を置く萬乗醸造株式会社によって作られている。愛知県の地酒を代表するだけではなく、日本酒の代表格である銘柄で、1647年に創業以来日本酒の持つ五感への刺激を認識しながら美味しいお酒を造り続けている。美意識、美しい田んぼからとれた、美しいお米を、美しい環境で醸造したい。本質、その日本酒はエレガントであるか。日本酒の本質とは何か。先見性、その日本酒は将来も愛されているか。出会ったことのない初めての感覚、さらなる進化の可能性。この三つを企業理念において日々改良に励んでいる。","DETAILENG":"Hello, World"},
  {"SAKE_ID":7,"NAMEJPN":"新政","NAMEENG":"ARAMASA","PREFECTURE":"秋田県","CITY":"秋田市","COMPANY":"新政酒造","LATITUDE":39.710843,"LONGITUTDE":140.114536,"ACIDITY":1.8,"SAKE_METER":0,"DETAILJP":"新政は秋田県秋田市大町に本社を置く新政酒造株式会社によって作られている。秋田県の地酒を代表するだけではなく、日本酒の代表格である銘柄で、1852年に創業しており、協会六号酵母の発祥蔵としても有名である。新政は「厚き徳をもって新しい政をなす」という意味を持つ。五代目はニッカウヰスキーの創業者である竹鶴政孝氏が同窓生であり、同校には「西の竹鶴、東の卯兵衛」という学業成績の優秀さを讃える言葉があったと言われている。より優れた酒を醸さんとする艱難辛苦の果てに五代目は六号酵母を酒に現出させることに成功することになった。","DETAILENG":"Hello, World"},
  {"SAKE_ID":8,"NAMEJPN":"獺祭","NAMEENG":"DASSAI","PREFECTURE":"山口県","CITY":"岩国市","COMPANY":"旭酒造","LATITUDE":34.125342,"LONGITUTDE":132.004985,"ACIDITY":1.1,"SAKE_METER":4,"DETAILJP":"獺祭は山口県岩国市周東町に本社を置く旭酒造株式会社によって作られている。山口県の地酒を代表するだけではなく、日本酒の代表格である銘柄で、獺祭の言葉の意味は、獺が捕らえた魚を岸に並べてまるで祭りをするようにみえるところから、詩や文をつくる時多くの参考資料等を広げちらす事を指している。明治の日本文学に革命を起こしたといわれる正岡子規が自らを獺祭書屋主人と号した事も有名である。蔵元は獺祭を楽しむ際には小ぶりのワイングラスを勧めている。上品な香りを感じやすくなり、薄めのグラスのほうが口当たり良く飲めるためである。","DETAILENG":"Hello, World"},
  {"SAKE_ID":9,"NAMEJPN":"浦霞","NAMEENG":"URAKASUMI","PREFECTURE":"宮城県","CITY":"塩竈市","COMPANY":"浦霞醸造","LATITUDE":38.316860,"LONGITUTDE":141.019247,"ACIDITY":1.5,"SAKE_METER":1,"DETAILJP":"浦霞は宮城県塩釜市元町に本社を置く株式会社佐浦によって作られている。宮城県の地酒を代表するだけではなく、日本酒の代表格である銘柄で、1724年に創業して以来1000年以上の歴史を持つ鹽竈神社の御神酒酒屋として酒を醸し続けている。「本物の酒を丁寧に造って、丁寧に売る」を軸に、じっくりと心をこめて醸した高品質な酒を誠実丁寧に消費者に届ける事で、より多くの人々に豊かさや安らぎ、潤いを提供し、日本酒の持っている素晴らしさをより伝えることが出来ると信じている。これからも日本酒の味を磨き上げていくことに真摯に向き合う。","DETAILENG":"Hello, World"},
  {"SAKE_ID":10,"NAMEJPN":"国士無双","NAMEENG":"KOKUSHIMUSO","PREFECTURE":"北海道","CITY":"旭川市","COMPANY":"高砂酒造","LATITUDE":43.760696,"LONGITUTDE":142.372588,"ACIDITY":1.4,"SAKE_METER":5,"DETAILJP":"国士無双は北海道旭川市宮下通に本社を置く高砂酒造によって作られている。北海道の地酒を代表する銘柄で、前身である小檜山酒造店時代から一世紀にわたり、道北・旭川の地で地酒を醸し続けてきた。昭和50年に誕生した淡麗辛口酒「国士無双」が一躍評判となり、その名は全国へと広がり、現在では代表銘柄が20種も存在している。杜氏を中心として、精米に始まり、製麹から上槽、火入れ、瓶詰めに至るまで、できるだけ機械に頼らず、蔵人一人一人の専門性に磨きをかけながら息の合ったチームワークを大切にして官能重視の酒造りを地道に続けている。","DETAILENG":"Hello, World"},
  {"SAKE_ID":11,"NAMEJPN":"田酒","NAMEENG":"DENSHU","PREFECTURE":"青森県","CITY":"青森市","COMPANY":"西田酒造","LATITUDE":40.854139,"LONGITUTDE":140.696814,"ACIDITY":1.3,"SAKE_METER":2,"DETAILJP":"田酒は青森県青森市油川に本社を置く西田酒造店によって作られている。青森県の地酒を代表する銘柄で、創業以来、日本酒の原点に帰り、風格ある本物の酒を造流ことを目指して完全な手作りを実現している。田酒の「田」は酒の元となる米が獲れる田んぼを意味し、名前の通り、醸造用糖類や醸造用アルコールは一切使用していないことを力強く主張した、米の旨みが生きる旨口の純米酒である。「純米大吟醸　百四拾　田酒」は山田錦に匹敵する良質な酒造好適米育成の研究の末に誕生した、青森県が奨励している県産酒造好適米の「華想い」を使用している。","DETAILENG":"Hello, World"},
  {"SAKE_ID":12,"NAMEJPN":"あさ開","NAMEENG":"ASAKAI","PREFECTURE":"岩手県","CITY":"盛岡市","COMPANY":"あさ開昭和旭蔵","LATITUDE":39.691597,"LONGITUTDE":141.159229,"ACIDITY":1.3,"SAKE_METER":3,"DETAILJP":"あさ開は岩手県盛岡市大慈寺町に本社を置くあさ開によって作られている。岩手県の地酒を代表する銘柄で、1871年の創業からあさ開は、米、水、技に恵まれた盛岡の地で豊かな自然に磨かれ、愛すべき人々に育まれてきた。全国新酒鑑評会24年連続で入賞しており、内19回は金賞を受賞している実力だ。岩手で開発した米、独自の酵母による酒が出来ないかと研究を重ね、岩手県産酒造好適米 「吟ぎんが」を完成させた。50％まで丹念に精白して爽やかな香りと軽快な飲み口が特徴となっており、未だない兵庫県の山田錦にかなう米を目指して酒造りに励む。","DETAILENG":"Hello, World"},
  {"SAKE_ID":13,"NAMEJPN":"日高見","NAMEENG":"HITAKAMI","PREFECTURE":"宮城県","CITY":"石巻市","COMPANY":"平孝酒造","LATITUDE":38.436746,"LONGITUTDE":141.297528,"ACIDITY":1.7,"SAKE_METER":11,"DETAILJP":"日高見は宮城県石巻市清水町に本社を置く平孝酒造によって作られている。宮城県の地酒を代表する銘柄で、1861年に創業してから日本屈指の港町である石巻で美味しいお酒を造り続けている。酒米の王様「兵庫産山田錦」を100％使用し、山田錦の旨味を充分に引き出しています。きれいな酒質でありながら芯が強く、味の濃いお酒と並べて飲んでも飲み負けしない存在感がある。口に含むと、味に厚みのあるふくよかな含み香に、なめらかな味わいで、コク、うまみがしっかりと感じられる。石巻では日高見と四季折々に美味しい魚介類を楽しむことができる。","DETAILENG":"Hello, World"},
  {"SAKE_ID":14,"NAMEJPN":"雪の茅舎","NAMEENG":"YUKINOBOSHA","PREFECTURE":"秋田県","CITY":"由利本荘市","COMPANY":"齋彌酒造","LATITUDE":39.396453,"LONGITUTDE":140.049867,"ACIDITY":1.5,"SAKE_METER":-1,"DETAILJP":"雪の茅舎は秋田県由利本荘市石脇字に本社を置く齋彌酒造によって作られている。秋田県の地酒を代表する銘柄で、20年以上前から酵母の自家培養に取り組み、長年にわたり選抜した酵母で独自の香味を生み出し、安定した酒質を目指している。蔵人が自ら栽培している、酒造好適米（秋田酒こまち）は米に含まれるたんぱく質の量が少なく雑味の日本酒を造るのに適しているという。雪の多い冬に東京から訪れたある作家が茅ぶき屋根の農家が点在している冬景色を見て「雪の茅舎」という名前が提案され、現在でも齋彌酒造の上質酒にはこの名が用いられる。","DETAILENG":"Hello, World"},
  {"SAKE_ID":15,"NAMEJPN":"出羽桜","NAMEENG":"DEWAZAKURA","PREFECTURE":"山形県","CITY":"天童市","COMPANY":"出羽桜酒造","LATITUDE":38.349210,"LONGITUTDE":140.370476,"ACIDITY":1.4,"SAKE_METER":4,"DETAILJP":"出羽桜は山形県天童市一日町に本社を置く出羽桜酒造によって作られている。山形県の地酒を代表する銘柄で、出羽桜酒造は1893年に独立し、地元でしっかりとした市民権と存在感のある酒を目指して日々美味しい日本酒を造り続けている。銘柄は純米大吟醸から本醸造、スパークリングの日本酒など幅広く、一般的なお客様の手の届く価格設定をするためにパッケージを豪華にするなどの余分な経費を省き、その分を酒質を良くするための経費にまわしている。幅広いラインナップがあるため吟醸酒だけではなく、スタンダードレベルのお酒も改良を続けている。","DETAILENG":"Hello, World"},
  {"SAKE_ID":16,"NAMEJPN":"大七","NAMEENG":"DAISHICHI","PREFECTURE":"福島県","CITY":"二本松市","COMPANY":"大七酒造","LATITUDE":37.598804,"LONGITUTDE":140.444407,"ACIDITY":1.6,"SAKE_METER":3,"DETAILJP":"大七は福島県二本松市竹田に本社を置く大七酒造によって作られている。福島県の地酒を代表する銘柄で、大七酒造は1752年の創業以来、日本酒の最も正統かつ伝統的な醸造法である「生もと造り」一筋に、豊潤な日本酒を製造し続けている。生もと造りで製造されたお酒は日本酒が通常苦手とする油脂を含む料理にも負けない酒質の強さがあり、大七はフランスの三つ星レストランシェフからの称賛も会得している。大七酒造が常に心がけているのは、人間の叡智と熟練とを結集した日本酒を造り続けること。今も醸造酒としての普遍的な価値を追究している。","DETAILENG":"Hello, World"},
  {"SAKE_ID":17,"NAMEJPN":"郷乃誉","NAMEENG":"SAWANOHOMARE","PREFECTURE":"茨城県","CITY":"笠間市","COMPANY":"須藤本家","LATITUDE":36.361727,"LONGITUTDE":140.324600,"ACIDITY":1.4,"SAKE_METER":2,"DETAILJP":"郷乃誉は茨城県笠間市小原に本社を置く須藤本家によって作られている。茨城県の地酒を代表する銘柄で、須藤本家は平安時代から850年以上の歴史歴史をもつ、日本最古の蔵元である。酒造りはすべて契約栽培米、伏流水。伝統製法はそのままに近年では、インターナショナルワインチャレンジ（IWC　国際ワイン・コンペティション）などでも受賞を得るなど、国際的にも評価が高く、酒質もとても柔らかで透き通った透明感抜群のお酒に仕上がっています。純米吟醸以上のグレードしか作らないことをこだわりとして、一貫した上質な雰囲気を醸しだしている。","DETAILENG":"Hello, World"},
  {"SAKE_ID":18,"NAMEJPN":"鳳凰美田","NAMEENG":"HOUOBIDEN","PREFECTURE":"栃木県","CITY":"小山市","COMPANY":"小林酒造","LATITUDE":36.345993,"LONGITUTDE":139.769501,"ACIDITY":1.4,"SAKE_METER":4,"DETAILJP":"鳳凰美田は栃木県小山市卒島に本社を置く小林酒造によって作られている。栃木県の地酒を代表する銘柄で、1872年からという長い歴史を持っている。一面の田園風景の中、豊富な地下水の小山市美田地区に建つ小林酒造は「地元に根差した愛される酒、愛される酒蔵を目指す」という考えのもと、マスカットやメロンのような香りを持つ主に吟醸酒を製造している。１０数年前は廃業も考えたという小さな蔵だが、蔵元専務の熱い情熱と酒醸造の先生として活躍していた奥様の二人の才能が結集して現在では平成の銘酒として全国的に展開して需要が増えている。","DETAILENG":"Hello, World"},
  {"SAKE_ID":19,"NAMEJPN":"尾瀬の雪どけ","NAMEENG":"AZENOYUKIDOKE","PREFECTURE":"群馬県","CITY":"館林市","COMPANY":"龍神酒造","LATITUDE":36.251222,"LONGITUTDE":139.530710,"ACIDITY":1.5,"SAKE_METER":1,"DETAILJP":"尾瀬の雪どけは群馬県館林市西本町に本社を置く龍神酒造によって作られている。群馬県の地酒を代表する銘柄で、地下１８０ｍ、龍神の井戸より汲み上げる超軟水の「龍神水」と、南部流伝統の吟醸仕込みを若手社員のみで酒造りを行う。いくつもの酒米を用いて個性を引き出す酒造りを心がけ、米本来の旨味を味わえる芳醇旨口タイプの酒質を目指している。清酒のラインアップはかなり豊富であり、多種類の米のブレンドだけではなく、季節ごとに香りや硬さが多少変わるという米の特徴をうまく捉ることで、春夏秋冬異なった香りを持つ清酒を提供する。","DETAILENG":"Hello, World"},
  {"SAKE_ID":20,"NAMEJPN":"神亀","NAMEENG":"SHINKAME","PREFECTURE":"埼玉県","CITY":"蓮田市","COMPANY":"神亀酒造","LATITUDE":35.972078,"LONGITUTDE":139.657431,"ACIDITY":1.6,"SAKE_METER":6,"DETAILJP":"神亀は埼玉県蓮田市馬込に本社を置く神亀酒造によって作られている。埼玉県の地酒を代表する銘柄である。最近では生酒の搾りたてなどの、フレッシュでフルーティーな香りを持っている清酒が全国的に主流となっているが、神亀酒造では日本酒の味わいの原点である米と旨味のコクを追求することにこだわっているため、すべての商品が最低でも二年間の熟成期間を経てからの出荷となっている。一口目は熟成による確りとした旨みが、ほんのりと甘味に感じる。含み香は濃厚な米本来の旨味を感じることができ、のどに落とすと静かに辛口に切れ進む。","DETAILENG":"Hello, World"},
  {"SAKE_ID":21,"NAMEJPN":"五人娘","NAMEENG":"GONINMUSUME","PREFECTURE":"千葉県","CITY":"香取郡","COMPANY":"寺田本家","LATITUDE":35.905132,"LONGITUTDE":140.401608,"ACIDITY":2.1,"SAKE_METER":4,"DETAILJP":"五人娘は千葉県香取郡神崎町に本社を置く寺田本家によって作られている。千葉県の地酒を代表する銘柄である。寺田本家の仕込水は蔵内の井戸からくみ上げたもので、最先端のテクノロジーにより分子集団の小さな水にしてから使用しており、微生物たちの生命力を高めることに成功している。2010年の仕込みからは契約農家の協力により全量無農薬米を使用することを初めた。江戸時代の伝統的な仕込方法である生もと造りは、近代的な速醸もとに比べて細かい温度管理に手間暇がかかり、杜氏の技術が要求されるが、今でも寺田本家はこの手法を続けている。","DETAILENG":"Hello, World"},
  {"SAKE_ID":22,"NAMEJPN":"澤乃井","NAMEENG":"SAWANOI","PREFECTURE":"東京都","CITY":"青梅市","COMPANY":"小澤酒造","LATITUDE":35.804928,"LONGITUTDE":139.193677,"ACIDITY":1.5,"SAKE_METER":3,"DETAILJP":"澤乃井は東京都青梅市沢井に本社を置く小澤酒造によって作られている。東京都の地酒を代表する銘柄である。仕込みの一本一本に対する真剣な心配りと、丁寧な技があってこそ真に心のこもった酒が生まれてくると信じて、奥多摩の名水を使った澤乃井が生み出される。その昔沢井村と呼ばれていた地名に因んで澤乃井と命名された。日本の首都であり高層ビルの立ち並ぶ東京都の奥に秘めた、秩父古生層の岩盤を掘り抜いた洞窟の奥から湧き出づる仕込水、連なる山々と豊かな緑、澄み切った奥多摩の空気によって作られる豊かな名水で澤乃井の味が引き立つ。","DETAILENG":"Hello, World"},
  {"SAKE_ID":23,"NAMEJPN":"いづみ橋","NAMEENG":"IZUMIBASHI","PREFECTURE":"神奈川県","CITY":"海老名市","COMPANY":"泉橋酒造","LATITUDE":35.465855,"LONGITUTDE":139.390184,"ACIDITY":1.4,"SAKE_METER":5,"DETAILJP":"いづみ橋は神奈川県海老名市下今泉に本社を置く泉橋酒造によって1857年から作られている。神奈川県の地酒を代表する銘柄で、酒造りは米作りからという信念のもと、酒米作りから精米や醸造まで一貫して行っている。この方式は全国でも珍しく、「栽培醸造蔵」と呼ばれている。昭和の初め頃、用水路として使われた泉川と本家の屋号である橋場を合わせて泉橋という名前に由来する。地域の農家とお米作りから取り組み、「精米は酒造りの魂」という信念のもと、ふと囲んでいると仲間同士で話が弾み、杯を重ねていたと、心地よく酔える酒を目指している。","DETAILENG":"Hello, World"},
  {"SAKE_ID":24,"NAMEJPN":"八海山","NAMEENG":"HAKKAISAN","PREFECTURE":"新潟県","CITY":"南魚沼市","COMPANY":"八海醸造","LATITUDE":37.100666,"LONGITUTDE":138.927334,"ACIDITY":1.2,"SAKE_METER":4,"DETAILJP":"八海山は新潟県南魚沼市長森に本社を置く八海醸造によって1922年から作られている。新潟県の地酒を代表する銘柄で、日本国内でかなり流通している日本酒の銘柄の一つでもある。仕込水『雷電様の清水』など酒造りに最適の雪国魚沼の環境条件の他「寒梅と八海山は兄弟蔵」と言われた酒造りの技で、淡麗辛口の酒質評価が高い食中酒。「どうすればよい酒ができるのか」という醸造技術は、明治時代までにほぼ確立されている中、普段のお酒の品質を少しでも高め、日本酒のスタンダードを高めていくことをモットーに毎年、限りない最高品質を目指す。","DETAILENG":"Hello, World"},
  {"SAKE_ID":25,"NAMEJPN":"満寿泉","NAMEENG":"MASUIZUMI","PREFECTURE":"富山県","CITY":"富山市","COMPANY":"桝田酒造","LATITUDE":36.755574,"LONGITUTDE":137.229085,"ACIDITY":1.3,"SAKE_METER":5,"DETAILJP":"八海山は新潟県南魚沼市長森に本社を置く八海醸造によって1922年から作られている。新潟県の地酒を代表する銘柄で、日本国内でかなり流通している日本酒の銘柄の一つでもある。仕込水『雷電様の清水』など酒造りに最適の雪国魚沼の環境条件の他「寒梅と八海山は兄弟蔵」と言われた酒造りの技で、淡麗辛口の酒質評価が高い食中酒。「どうすればよい酒ができるのか」という醸造技術は、明治時代までにほぼ確立されている中、普段のお酒の品質を少しでも高め、日本酒のスタンダードを高めていくことをモットーに毎年毎年、限りない最高品質を目指す。","DETAILENG":"Hello, World"},
  {"SAKE_ID":26,"NAMEJPN":"菊姫","NAMEENG":"KIKUHIME","PREFECTURE":"石川県","CITY":"白山市","COMPANY":"菊姫","LATITUDE":36.446333,"LONGITUTDE":136.629603,"ACIDITY":1.2,"SAKE_METER":5,"DETAILJP":"八海山は新潟県南魚沼市長森に本社を置く八海醸造によって1922年から作られている。新潟県の地酒を代表する銘柄で、日本国内でかなり流通している日本酒の銘柄の一つでもある。仕込水『雷電様の清水』など酒造りに最適の雪国魚沼の環境条件の他「寒梅と八海山は兄弟蔵」と言われた酒造りの技で、淡麗辛口の酒質評価が高い食中酒。「どうすればよい酒ができるのか」という醸造技術は、明治時代までにほぼ確立されている中、普段のお酒の品質を少しでも高め、日本酒のスタンダードを高めていくことをモットーに毎年毎年、限りない最高品質を目指す。","DETAILENG":"Hello, World"},
  {"SAKE_ID":27,"NAMEJPN":"梵","NAMEENG":"BON","PREFECTURE":"福井県","CITY":"鯖江市","COMPANY":"加藤吉平商店","LATITUDE":35.986345,"LONGITUTDE":136.170473,"ACIDITY":1.2,"SAKE_METER":2,"DETAILJP":"八海山は新潟県南魚沼市長森に本社を置く八海醸造によって1922年から作られている。新潟県の地酒を代表する銘柄で、日本国内でかなり流通している日本酒の銘柄の一つでもある。仕込水『雷電様の清水』など酒造りに最適の雪国魚沼の環境条件の他「寒梅と八海山は兄弟蔵」と言われた酒造りの技で、淡麗辛口の酒質評価が高い食中酒。「どうすればよい酒ができるのか」という醸造技術は、明治時代までにほぼ確立されている中、普段のお酒の品質を少しでも高め、日本酒のスタンダードを高めていくことをモットーに毎年毎年、限りない最高品質を目指す。","DETAILENG":"Hello, World"},
  {"SAKE_ID":28,"NAMEJPN":"春鶯囀","NAMEENG":"SHUNNOTEN","PREFECTURE":"山梨県","CITY":"南巨摩郡","COMPANY":"萬屋醸造","LATITUDE":35.560486,"LONGITUTDE":138.466947,"ACIDITY":1.3,"SAKE_METER":5,"DETAILJP":"八海山は新潟県南魚沼市長森に本社を置く八海醸造によって1922年から作られている。新潟県の地酒を代表する銘柄で、日本国内でかなり流通している日本酒の銘柄の一つでもある。仕込水『雷電様の清水』など酒造りに最適の雪国魚沼の環境条件の他「寒梅と八海山は兄弟蔵」と言われた酒造りの技で、淡麗辛口の酒質評価が高い食中酒。「どうすればよい酒ができるのか」という醸造技術は、明治時代までにほぼ確立されている中、普段のお酒の品質を少しでも高め、日本酒のスタンダードを高めていくことをモットーに毎年毎年、限りない最高品質を目指す。","DETAILENG":"Hello, World"},
  {"SAKE_ID":29,"NAMEJPN":"真澄","NAMEENG":"MASUMI","PREFECTURE":"長野県","CITY":"諏訪市","COMPANY":"宮坂醸造","LATITUDE":35.886444,"LONGITUTDE":138.229631,"ACIDITY":2.1,"SAKE_METER":-1,"DETAILJP":"八海山は新潟県南魚沼市長森に本社を置く八海醸造によって1922年から作られている。新潟県の地酒を代表する銘柄で、日本国内でかなり流通している日本酒の銘柄の一つでもある。仕込水『雷電様の清水』など酒造りに最適の雪国魚沼の環境条件の他「寒梅と八海山は兄弟蔵」と言われた酒造りの技で、淡麗辛口の酒質評価が高い食中酒。「どうすればよい酒ができるのか」という醸造技術は、明治時代までにほぼ確立されている中、普段のお酒の品質を少しでも高め、日本酒のスタンダードを高めていくことをモットーに毎年毎年、限りない最高品質を目指す。","DETAILENG":"Hello, World"},
  {"SAKE_ID":30,"NAMEJPN":"小左衛門","NAMEENG":"KOZAEMON","PREFECTURE":"岐阜県","CITY":"瑞浪市","COMPANY":"中島醸造","LATITUDE":35.365095,"LONGITUTDE":137.259791,"ACIDITY":2.8,"SAKE_METER":7,"DETAILJP":"八海山は新潟県南魚沼市長森に本社を置く八海醸造によって1922年から作られている。新潟県の地酒を代表する銘柄で、日本国内でかなり流通している日本酒の銘柄の一つでもある。仕込水『雷電様の清水』など酒造りに最適の雪国魚沼の環境条件の他「寒梅と八海山は兄弟蔵」と言われた酒造りの技で、淡麗辛口の酒質評価が高い食中酒。「どうすればよい酒ができるのか」という醸造技術は、明治時代までにほぼ確立されている中、普段のお酒の品質を少しでも高め、日本酒のスタンダードを高めていくことをモットーに毎年毎年、限りない最高品質を目指す。","DETAILENG":"Hello, World"},
  {"SAKE_ID":31,"NAMEJPN":"臥竜梅","NAMEENG":"GARYUBAI","PREFECTURE":"静岡県","CITY":"静岡市","COMPANY":"三和酒造","LATITUDE":35.036069,"LONGITUTDE":138.482989,"ACIDITY":1.1,"SAKE_METER":4,"DETAILJP":"八海山は新潟県南魚沼市長森に本社を置く八海醸造によって1922年から作られている。新潟県の地酒を代表する銘柄で、日本国内でかなり流通している日本酒の銘柄の一つでもある。仕込水『雷電様の清水』など酒造りに最適の雪国魚沼の環境条件の他「寒梅と八海山は兄弟蔵」と言われた酒造りの技で、淡麗辛口の酒質評価が高い食中酒。「どうすればよい酒ができるのか」という醸造技術は、明治時代までにほぼ確立されている中、普段のお酒の品質を少しでも高め、日本酒のスタンダードを高めていくことをモットーに毎年毎年、限りない最高品質を目指す。","DETAILENG":"Hello, World"},
  {"SAKE_ID":32,"NAMEJPN":"蓬莱泉","NAMEENG":"HORAISEN","PREFECTURE":"愛知県","CITY":"北設楽郡","COMPANY":"関谷醸造","LATITUDE":36.738151,"LONGITUTDE":138.420684,"ACIDITY":1.3,"SAKE_METER":1,"DETAILJP":"八海山は新潟県南魚沼市長森に本社を置く八海醸造によって1922年から作られている。新潟県の地酒を代表する銘柄で、日本国内でかなり流通している日本酒の銘柄の一つでもある。仕込水『雷電様の清水』など酒造りに最適の雪国魚沼の環境条件の他「寒梅と八海山は兄弟蔵」と言われた酒造りの技で、淡麗辛口の酒質評価が高い食中酒。「どうすればよい酒ができるのか」という醸造技術は、明治時代までにほぼ確立されている中、普段のお酒の品質を少しでも高め、日本酒のスタンダードを高めていくことをモットーに毎年毎年、限りない最高品質を目指す。","DETAILENG":"Hello, World"},
  {"SAKE_ID":33,"NAMEJPN":"三重錦","NAMEENG":"MIENISHIKI","PREFECTURE":"三重県","CITY":"伊賀市","COMPANY":"中井仁平酒造","LATITUDE":34.769784,"LONGITUTDE":136.123844,"ACIDITY":2.0,"SAKE_METER":6,"DETAILJP":"八海山は新潟県南魚沼市長森に本社を置く八海醸造によって1922年から作られている。新潟県の地酒を代表する銘柄で、日本国内でかなり流通している日本酒の銘柄の一つでもある。仕込水『雷電様の清水』など酒造りに最適の雪国魚沼の環境条件の他「寒梅と八海山は兄弟蔵」と言われた酒造りの技で、淡麗辛口の酒質評価が高い食中酒。「どうすればよい酒ができるのか」という醸造技術は、明治時代までにほぼ確立されている中、普段のお酒の品質を少しでも高め、日本酒のスタンダードを高めていくことをモットーに毎年毎年、限りない最高品質を目指す。","DETAILENG":"Hello, World"},
  {"SAKE_ID":34,"NAMEJPN":"松の司","NAMEENG":"MATSUNOTSUKASA","PREFECTURE":"滋賀県","CITY":"蒲生郡","COMPANY":"松瀬酒造","LATITUDE":35.083280,"LONGITUTDE":136.118966,"ACIDITY":1.3,"SAKE_METER":2,"DETAILJP":"八海山は新潟県南魚沼市長森に本社を置く八海醸造によって1922年から作られている。新潟県の地酒を代表する銘柄で、日本国内でかなり流通している日本酒の銘柄の一つでもある。仕込水『雷電様の清水』など酒造りに最適の雪国魚沼の環境条件の他「寒梅と八海山は兄弟蔵」と言われた酒造りの技で、淡麗辛口の酒質評価が高い食中酒。「どうすればよい酒ができるのか」という醸造技術は、明治時代までにほぼ確立されている中、普段のお酒の品質を少しでも高め、日本酒のスタンダードを高めていくことをモットーに毎年毎年、限りない最高品質を目指す。","DETAILENG":"Hello, World"},
  {"SAKE_ID":35,"NAMEJPN":"玉乃光","NAMEENG":"TAMANOHIKARI","PREFECTURE":"京都府","CITY":"京都市","COMPANY":"玉乃光酒造","LATITUDE":34.937656,"LONGITUTDE":135.757956,"ACIDITY":1.8,"SAKE_METER":3,"DETAILJP":"八海山は新潟県南魚沼市長森に本社を置く八海醸造によって1922年から作られている。新潟県の地酒を代表する銘柄で、日本国内でかなり流通している日本酒の銘柄の一つでもある。仕込水『雷電様の清水』など酒造りに最適の雪国魚沼の環境条件の他「寒梅と八海山は兄弟蔵」と言われた酒造りの技で、淡麗辛口の酒質評価が高い食中酒。「どうすればよい酒ができるのか」という醸造技術は、明治時代までにほぼ確立されている中、普段のお酒の品質を少しでも高め、日本酒のスタンダードを高めていくことをモットーに毎年毎年、限りない最高品質を目指す。","DETAILENG":"Hello, World"},
  {"SAKE_ID":36,"NAMEJPN":"秋鹿","NAMEENG":"AKISHIKA","PREFECTURE":"大阪府","CITY":"豊能郡","COMPANY":"秋鹿酒造","LATITUDE":34.976744,"LONGITUTDE":135.467000,"ACIDITY":2.0,"SAKE_METER":8,"DETAILJP":"八海山は新潟県南魚沼市長森に本社を置く八海醸造によって1922年から作られている。新潟県の地酒を代表する銘柄で、日本国内でかなり流通している日本酒の銘柄の一つでもある。仕込水『雷電様の清水』など酒造りに最適の雪国魚沼の環境条件の他「寒梅と八海山は兄弟蔵」と言われた酒造りの技で、淡麗辛口の酒質評価が高い食中酒。「どうすればよい酒ができるのか」という醸造技術は、明治時代までにほぼ確立されている中、普段のお酒の品質を少しでも高め、日本酒のスタンダードを高めていくことをモットーに毎年毎年、限りない最高品質を目指す。","DETAILENG":"Hello, World"},
  {"SAKE_ID":37,"NAMEJPN":"剣菱","NAMEENG":"KENBISHI","PREFECTURE":"兵庫県","CITY":"神戸市","COMPANY":"剣菱酒造","LATITUDE":34.710109,"LONGITUTDE":135.256749,"ACIDITY":1.6,"SAKE_METER":0,"DETAILJP":"八海山は新潟県南魚沼市長森に本社を置く八海醸造によって1922年から作られている。新潟県の地酒を代表する銘柄で、日本国内でかなり流通している日本酒の銘柄の一つでもある。仕込水『雷電様の清水』など酒造りに最適の雪国魚沼の環境条件の他「寒梅と八海山は兄弟蔵」と言われた酒造りの技で、淡麗辛口の酒質評価が高い食中酒。「どうすればよい酒ができるのか」という醸造技術は、明治時代までにほぼ確立されている中、普段のお酒の品質を少しでも高め、日本酒のスタンダードを高めていくことをモットーに毎年毎年、限りない最高品質を目指す。","DETAILENG":"Hello, World"},
  {"SAKE_ID":38,"NAMEJPN":"風の森","NAMEENG":"KAZENOMORI","PREFECTURE":"奈良県","CITY":"御所市","COMPANY":"油長酒造","LATITUDE":34.461848,"LONGITUTDE":135.736862,"ACIDITY":1.9,"SAKE_METER":2,"DETAILJP":"八海山は新潟県南魚沼市長森に本社を置く八海醸造によって1922年から作られている。新潟県の地酒を代表する銘柄で、日本国内でかなり流通している日本酒の銘柄の一つでもある。仕込水『雷電様の清水』など酒造りに最適の雪国魚沼の環境条件の他「寒梅と八海山は兄弟蔵」と言われた酒造りの技で、淡麗辛口の酒質評価が高い食中酒。「どうすればよい酒ができるのか」という醸造技術は、明治時代までにほぼ確立されている中、普段のお酒の品質を少しでも高め、日本酒のスタンダードを高めていくことをモットーに毎年毎年、限りない最高品質を目指す。","DETAILENG":"Hello, World"},
  {"SAKE_ID":39,"NAMEJPN":"黒牛","NAMEENG":"KUROUSHI","PREFECTURE":"和歌山県","CITY":"海南市","COMPANY":"名手酒造","LATITUDE":34.163251,"LONGITUTDE":135.206414,"ACIDITY":1.7,"SAKE_METER":5,"DETAILJP":"八海山は新潟県南魚沼市長森に本社を置く八海醸造によって1922年から作られている。新潟県の地酒を代表する銘柄で、日本国内でかなり流通している日本酒の銘柄の一つでもある。仕込水『雷電様の清水』など酒造りに最適の雪国魚沼の環境条件の他「寒梅と八海山は兄弟蔵」と言われた酒造りの技で、淡麗辛口の酒質評価が高い食中酒。「どうすればよい酒ができるのか」という醸造技術は、明治時代までにほぼ確立されている中、普段のお酒の品質を少しでも高め、日本酒のスタンダードを高めていくことをモットーに毎年毎年、限りない最高品質を目指す。","DETAILENG":"Hello, World"},
  {"SAKE_ID":40,"NAMEJPN":"鷹勇","NAMEENG":"TAKAISAMI","PREFECTURE":"鳥取県","CITY":"東伯郡","COMPANY":"大谷酒造","LATITUDE":35.493209,"LONGITUTDE":133.691745,"ACIDITY":1.5,"SAKE_METER":6,"DETAILJP":"八海山は新潟県南魚沼市長森に本社を置く八海醸造によって1922年から作られている。新潟県の地酒を代表する銘柄で、日本国内でかなり流通している日本酒の銘柄の一つでもある。仕込水『雷電様の清水』など酒造りに最適の雪国魚沼の環境条件の他「寒梅と八海山は兄弟蔵」と言われた酒造りの技で、淡麗辛口の酒質評価が高い食中酒。「どうすればよい酒ができるのか」という醸造技術は、明治時代までにほぼ確立されている中、普段のお酒の品質を少しでも高め、日本酒のスタンダードを高めていくことをモットーに毎年毎年、限りない最高品質を目指す。","DETAILENG":"Hello, World"},
  {"SAKE_ID":41,"NAMEJPN":"李白","NAMEENG":"RIHAKU","PREFECTURE":"島根県","CITY":"松江市","COMPANY":"李白酒造","LATITUDE":35.481036,"LONGITUTDE":133.058068,"ACIDITY":1.5,"SAKE_METER":5,"DETAILJP":"八海山は新潟県南魚沼市長森に本社を置く八海醸造によって1922年から作られている。新潟県の地酒を代表する銘柄で、日本国内でかなり流通している日本酒の銘柄の一つでもある。仕込水『雷電様の清水』など酒造りに最適の雪国魚沼の環境条件の他「寒梅と八海山は兄弟蔵」と言われた酒造りの技で、淡麗辛口の酒質評価が高い食中酒。「どうすればよい酒ができるのか」という醸造技術は、明治時代までにほぼ確立されている中、普段のお酒の品質を少しでも高め、日本酒のスタンダードを高めていくことをモットーに毎年毎年、限りない最高品質を目指す。","DETAILENG":"Hello, World"},
  {"SAKE_ID":42,"NAMEJPN":"酒一筋","NAMEENG":"SAKEHITOSUJI","PREFECTURE":"岡山県","CITY":"赤磐市","COMPANY":"利守酒造","LATITUDE":34.809200,"LONGITUTDE":134.014232,"ACIDITY":1.3,"SAKE_METER":4,"DETAILJP":"八海山は新潟県南魚沼市長森に本社を置く八海醸造によって1922年から作られている。新潟県の地酒を代表する銘柄で、日本国内でかなり流通している日本酒の銘柄の一つでもある。仕込水『雷電様の清水』など酒造りに最適の雪国魚沼の環境条件の他「寒梅と八海山は兄弟蔵」と言われた酒造りの技で、淡麗辛口の酒質評価が高い食中酒。「どうすればよい酒ができるのか」という醸造技術は、明治時代までにほぼ確立されている中、普段のお酒の品質を少しでも高め、日本酒のスタンダードを高めていくことをモットーに毎年毎年、限りない最高品質を目指す。","DETAILENG":"Hello, World"},
  {"SAKE_ID":43,"NAMEJPN":"竹鶴","NAMEENG":"TAKEZURU","PREFECTURE":"広島県","CITY":"竹原市","COMPANY":"竹鶴酒造","LATITUDE":34.345993,"LONGITUTDE":132.911405,"ACIDITY":2.9,"SAKE_METER":7.5,"DETAILJP":"八海山は新潟県南魚沼市長森に本社を置く八海醸造によって1922年から作られている。新潟県の地酒を代表する銘柄で、日本国内でかなり流通している日本酒の銘柄の一つでもある。仕込水『雷電様の清水』など酒造りに最適の雪国魚沼の環境条件の他「寒梅と八海山は兄弟蔵」と言われた酒造りの技で、淡麗辛口の酒質評価が高い食中酒。「どうすればよい酒ができるのか」という醸造技術は、明治時代までにほぼ確立されている中、普段のお酒の品質を少しでも高め、日本酒のスタンダードを高めていくことをモットーに毎年毎年、限りない最高品質を目指す。","DETAILENG":"Hello, World"},
  {"SAKE_ID":44,"NAMEJPN":"雁木","NAMEENG":"GANGI","PREFECTURE":"山口県","CITY":"岩国市","COMPANY":"八百新酒造","LATITUDE":34.162242,"LONGITUTDE":132.216717,"ACIDITY":1.6,"SAKE_METER":5,"DETAILJP":"八海山は新潟県南魚沼市長森に本社を置く八海醸造によって1922年から作られている。新潟県の地酒を代表する銘柄で、日本国内でかなり流通している日本酒の銘柄の一つでもある。仕込水『雷電様の清水』など酒造りに最適の雪国魚沼の環境条件の他「寒梅と八海山は兄弟蔵」と言われた酒造りの技で、淡麗辛口の酒質評価が高い食中酒。「どうすればよい酒ができるのか」という醸造技術は、明治時代までにほぼ確立されている中、普段のお酒の品質を少しでも高め、日本酒のスタンダードを高めていくことをモットーに毎年毎年、限りない最高品質を目指す。","DETAILENG":"Hello, World"},
  {"SAKE_ID":45,"NAMEJPN":"三芳菊","NAMEENG":"MIYOSHIKIKU","PREFECTURE":"徳島県","CITY":"三好市","COMPANY":"三芳菊酒造","LATITUDE":34.027804,"LONGITUTDE":133.810295,"ACIDITY":1.2,"SAKE_METER":1.7,"DETAILJP":"八海山は新潟県南魚沼市長森に本社を置く八海醸造によって1922年から作られている。新潟県の地酒を代表する銘柄で、日本国内でかなり流通している日本酒の銘柄の一つでもある。仕込水『雷電様の清水』など酒造りに最適の雪国魚沼の環境条件の他「寒梅と八海山は兄弟蔵」と言われた酒造りの技で、淡麗辛口の酒質評価が高い食中酒。「どうすればよい酒ができるのか」という醸造技術は、明治時代までにほぼ確立されている中、普段のお酒の品質を少しでも高め、日本酒のスタンダードを高めていくことをモットーに毎年毎年、限りない最高品質を目指す。","DETAILENG":"Hello, World"},
  {"SAKE_ID":46,"NAMEJPN":"悦凱陣","NAMEENG":"YOROKOBIGAIJIN","PREFECTURE":"香川県","CITY":"仲多度郡","COMPANY":"丸尾本店","LATITUDE":34.191574,"LONGITUTDE":133.828655,"ACIDITY":1.6,"SAKE_METER":4,"DETAILJP":"八海山は新潟県南魚沼市長森に本社を置く八海醸造によって1922年から作られている。新潟県の地酒を代表する銘柄で、日本国内でかなり流通している日本酒の銘柄の一つでもある。仕込水『雷電様の清水』など酒造りに最適の雪国魚沼の環境条件の他「寒梅と八海山は兄弟蔵」と言われた酒造りの技で、淡麗辛口の酒質評価が高い食中酒。「どうすればよい酒ができるのか」という醸造技術は、明治時代までにほぼ確立されている中、普段のお酒の品質を少しでも高め、日本酒のスタンダードを高めていくことをモットーに毎年毎年、限りない最高品質を目指す。","DETAILENG":"Hello, World"},
  {"SAKE_ID":47,"NAMEJPN":"石鎚","NAMEENG":"ISHIZUCHI","PREFECTURE":"愛媛県","CITY":"西条市","COMPANY":"石鎚酒造","LATITUDE":33.891017,"LONGITUTDE":133.130402,"ACIDITY":1.7,"SAKE_METER":3,"DETAILJP":"八海山は新潟県南魚沼市長森に本社を置く八海醸造によって1922年から作られている。新潟県の地酒を代表する銘柄で、日本国内でかなり流通している日本酒の銘柄の一つでもある。仕込水『雷電様の清水』など酒造りに最適の雪国魚沼の環境条件の他「寒梅と八海山は兄弟蔵」と言われた酒造りの技で、淡麗辛口の酒質評価が高い食中酒。「どうすればよい酒ができるのか」という醸造技術は、明治時代までにほぼ確立されている中、普段のお酒の品質を少しでも高め、日本酒のスタンダードを高めていくことをモットーに毎年毎年、限りない最高品質を目指す。","DETAILENG":"Hello, World"},
  {"SAKE_ID":48,"NAMEJPN":"南","NAMEENG":"MINAMI","PREFECTURE":"高知県","CITY":"安芸郡","COMPANY":"南酒造","LATITUDE":33.438705,"LONGITUTDE":133.981978,"ACIDITY":1.8,"SAKE_METER":8,"DETAILJP":"八海山は新潟県南魚沼市長森に本社を置く八海醸造によって1922年から作られている。新潟県の地酒を代表する銘柄で、日本国内でかなり流通している日本酒の銘柄の一つでもある。仕込水『雷電様の清水』など酒造りに最適の雪国魚沼の環境条件の他「寒梅と八海山は兄弟蔵」と言われた酒造りの技で、淡麗辛口の酒質評価が高い食中酒。「どうすればよい酒ができるのか」という醸造技術は、明治時代までにほぼ確立されている中、普段のお酒の品質を少しでも高め、日本酒のスタンダードを高めていくことをモットーに毎年毎年、限りない最高品質を目指す。","DETAILENG":"Hello, World"},
  {"SAKE_ID":49,"NAMEJPN":"庭のうぐいす","NAMEENG":"NIWANOUGUISU","PREFECTURE":"福岡県","CITY":"久留米市","COMPANY":"山口酒造","LATITUDE":33.343815,"LONGITUTDE":130.581938,"ACIDITY":1.5,"SAKE_METER":3,"DETAILJP":"八海山は新潟県南魚沼市長森に本社を置く八海醸造によって1922年から作られている。新潟県の地酒を代表する銘柄で、日本国内でかなり流通している日本酒の銘柄の一つでもある。仕込水『雷電様の清水』など酒造りに最適の雪国魚沼の環境条件の他「寒梅と八海山は兄弟蔵」と言われた酒造りの技で、淡麗辛口の酒質評価が高い食中酒。「どうすればよい酒ができるのか」という醸造技術は、明治時代までにほぼ確立されている中、普段のお酒の品質を少しでも高め、日本酒のスタンダードを高めていくことをモットーに毎年毎年、限りない最高品質を目指す。","DETAILENG":"Hello, World"},
  {"SAKE_ID":50,"NAMEJPN":"鍋島","NAMEENG":"NABESHIMA","PREFECTURE":"佐賀県","CITY":"鹿島市","COMPANY":"富久千代酒造","LATITUDE":33.093680,"LONGITUTDE":130.114580,"ACIDITY":1.6,"SAKE_METER":5,"DETAILJP":"八海山は新潟県南魚沼市長森に本社を置く八海醸造によって1922年から作られている。新潟県の地酒を代表する銘柄で、日本国内でかなり流通している日本酒の銘柄の一つでもある。仕込水『雷電様の清水』など酒造りに最適の雪国魚沼の環境条件の他「寒梅と八海山は兄弟蔵」と言われた酒造りの技で、淡麗辛口の酒質評価が高い食中酒。「どうすればよい酒ができるのか」という醸造技術は、明治時代までにほぼ確立されている中、普段のお酒の品質を少しでも高め、日本酒のスタンダードを高めていくことをモットーに毎年毎年、限りない最高品質を目指す。","DETAILENG":"Hello, World"},
  {"SAKE_ID":51,"NAMEJPN":"六十餘洲","NAMEENG":"ROKUJUYOSHU","PREFECTURE":"長崎県","CITY":"東彼杵郡","COMPANY":"今里酒造","LATITUDE":33.136453,"LONGITUTDE":129.896401,"ACIDITY":1.3,"SAKE_METER":4,"DETAILJP":"八海山は新潟県南魚沼市長森に本社を置く八海醸造によって1922年から作られている。新潟県の地酒を代表する銘柄で、日本国内でかなり流通している日本酒の銘柄の一つでもある。仕込水『雷電様の清水』など酒造りに最適の雪国魚沼の環境条件の他「寒梅と八海山は兄弟蔵」と言われた酒造りの技で、淡麗辛口の酒質評価が高い食中酒。「どうすればよい酒ができるのか」という醸造技術は、明治時代までにほぼ確立されている中、普段のお酒の品質を少しでも高め、日本酒のスタンダードを高めていくことをモットーに毎年毎年、限りない最高品質を目指す。","DETAILENG":"Hello, World"},
  {"SAKE_ID":52,"NAMEJPN":"れいざん","NAMEENG":"REIZAN","PREFECTURE":"熊本県","CITY":"安蘇郡","COMPANY":"山村酒造","LATITUDE":32.817305,"LONGITUTDE":131.125192,"ACIDITY":1.6,"SAKE_METER":3.5,"DETAILJP":"八海山は新潟県南魚沼市長森に本社を置く八海醸造によって1922年から作られている。新潟県の地酒を代表する銘柄で、日本国内でかなり流通している日本酒の銘柄の一つでもある。仕込水『雷電様の清水』など酒造りに最適の雪国魚沼の環境条件の他「寒梅と八海山は兄弟蔵」と言われた酒造りの技で、淡麗辛口の酒質評価が高い食中酒。「どうすればよい酒ができるのか」という醸造技術は、明治時代までにほぼ確立されている中、普段のお酒の品質を少しでも高め、日本酒のスタンダードを高めていくことをモットーに毎年毎年、限りない最高品質を目指す。","DETAILENG":"Hello, World"},
  {"SAKE_ID":53,"NAMEJPN":"西の関","NAMEENG":"NISHINOSEKI","PREFECTURE":"大分県","CITY":"国東市","COMPANY":"萱島酒造","LATITUDE":33.525374,"LONGITUTDE":131.725850,"ACIDITY":1.4,"SAKE_METER":-1.5,"DETAILJP":"八海山は新潟県南魚沼市長森に本社を置く八海醸造によって1922年から作られている。新潟県の地酒を代表する銘柄で、日本国内でかなり流通している日本酒の銘柄の一つでもある。仕込水『雷電様の清水』など酒造りに最適の雪国魚沼の環境条件の他「寒梅と八海山は兄弟蔵」と言われた酒造りの技で、淡麗辛口の酒質評価が高い食中酒。「どうすればよい酒ができるのか」という醸造技術は、明治時代までにほぼ確立されている中、普段のお酒の品質を少しでも高め、日本酒のスタンダードを高めていくことをモットーに毎年毎年、限りない最高品質を目指す。","DETAILENG":"Hello, World"},
  {"SAKE_ID":54,"NAMEJPN":"千徳","NAMEENG":"SENTOKU","PREFECTURE":"宮崎県","CITY":"延岡市","COMPANY":"千徳酒造","LATITUDE":32.573349,"LONGITUTDE":131.666326,"ACIDITY":1.5,"SAKE_METER":2,"DETAILJP":"八海山は新潟県南魚沼市長森に本社を置く八海醸造によって1922年から作られている。新潟県の地酒を代表する銘柄で、日本国内でかなり流通している日本酒の銘柄の一つでもある。仕込水『雷電様の清水』など酒造りに最適の雪国魚沼の環境条件の他「寒梅と八海山は兄弟蔵」と言われた酒造りの技で、淡麗辛口の酒質評価が高い食中酒。「どうすればよい酒ができるのか」という醸造技術は、明治時代までにほぼ確立されている中、普段のお酒の品質を少しでも高め、日本酒のスタンダードを高めていくことをモットーに毎年毎年、限りない最高品質を目指す。","DETAILENG":"Hello, World"},
  {"SAKE_ID":55,"NAMEJPN":"薩州正宗","NAMEENG":"SASSHUMASAMUNE","PREFECTURE":"鹿児島県","CITY":"いちき串木野市","COMPANY":"濱田酒造","LATITUDE":31.727095,"LONGITUTDE":130.256862,"ACIDITY":1.8,"SAKE_METER":0,"DETAILJP":"八海山は新潟県南魚沼市長森に本社を置く八海醸造によって1922年から作られている。新潟県の地酒を代表する銘柄で、日本国内でかなり流通している日本酒の銘柄の一つでもある。仕込水『雷電様の清水』など酒造りに最適の雪国魚沼の環境条件の他「寒梅と八海山は兄弟蔵」と言われた酒造りの技で、淡麗辛口の酒質評価が高い食中酒。「どうすればよい酒ができるのか」という醸造技術は、明治時代までにほぼ確立されている中、普段のお酒の品質を少しでも高め、日本酒のスタンダードを高めていくことをモットーに毎年毎年、限りない最高品質を目指す。","DETAILENG":"Hello, World"},
  {"SAKE_ID":56,"NAMEJPN":"黎明","NAMEENG":"REIMEI","PREFECTURE":"沖縄県","CITY":"うるま市","COMPANY":"泰石酒造","LATITUDE":26.368908,"LONGITUTDE":127.852111,"ACIDITY":1.6,"SAKE_METER":7.1,"DETAILJP":"八海山は新潟県南魚沼市長森に本社を置く八海醸造によって1922年から作られている。新潟県の地酒を代表する銘柄で、日本国内でかなり流通している日本酒の銘柄の一つでもある。仕込水『雷電様の清水』など酒造りに最適の雪国魚沼の環境条件の他「寒梅と八海山は兄弟蔵」と言われた酒造りの技で、淡麗辛口の酒質評価が高い食中酒。「どうすればよい酒ができるのか」という醸造技術は、明治時代までにほぼ確立されている中、普段のお酒の品質を少しでも高め、日本酒のスタンダードを高めていくことをモットーに毎年毎年、限りない最高品質を目指す。","DETAILENG":"Hello, World"}]